[
  {
    "name": "The Spring Bintulu",
    "features": "Modern lifestyle mall with over 127 outlets, seafront esplanade, cinema, and panoramic sea views.",
    "address": "Lot 4282, Jalan Tun Abdul Razak, Bintulu, Sarawak, Malaysia",
    "businessHours": "10:00 AM – 10:00 PM (Daily)",
    "contact": "-"
  },
  {
    "name": "Boulevard Shopping Mall Bintulu",
    "features": "Comprehensive mall with diverse retail, dining, and entertainment including fashion and wellness.",
    "address": "714, Jalan Tun Razak, 97000 Bintulu, Sarawak, Malaysia",
    "businessHours": "10:00 AM – 10:00 PM (Daily)",
    "contact": "-"
  },
  {
    "name": "ParkCity Mall",
    "features": "One of the earliest malls in Bintulu, offering retail, eateries, and essential services.",
    "address": "Jalan Tun Ahmad Zaidi, Bintulu, Sarawak, Malaysia",
    "businessHours": "10:00 AM – 10:00 PM (Daily)",
    "contact": "-"
  },
  {
    "name": "Times Square Megamall Bintulu",
    "features": "Community-focused mall with a mix of retail, dining, and entertainment options.",
    "address": "Jalan Tun Ahmad Zaidi, Bintulu, Sarawak, Malaysia",
    "businessHours": "10:00 AM – 10:00 PM (Daily)",
    "contact": "-"
  },
  {
    "name": "Commerce Square Mall",
    "features": "Retail and entertainment hub featuring dining outlets and Ashtar Galactic Cinema.",
    "address": "Jalan Tun Ahmad Zaidi, Bintulu, Sarawak, Malaysia",
    "businessHours": "10:00 AM – 10:00 PM (Daily)",
    "contact": "-"
  },
  {
    "name": "City Point Mall",
    "features": "Shopping center with stores and services for local community needs.",
    "address": "Jalan Tanjung Batu, Bintulu, Sarawak, Malaysia",
    "businessHours": "10:00 AM – 10:00 PM (Daily)",
    "contact": "-"
  },
  {
    "name": "Li Hua Plaza",
    "features": "Local complex with retail and food outlets, a convenient neighborhood shopping choice.",
    "address": "Jalan Tun Ahmad Zaidi, Bintulu, Sarawak, Malaysia",
    "businessHours": "10:00 AM – 10:00 PM (Daily)",
    "contact": "-"
  },
  {
    "name": "Medan Mall",
    "features": "Neighborhood mall with shops and eateries, ideal for daily needs.",
    "address": "Jalan Tun Ahmad Zaidi, Bintulu, Sarawak, Malaysia",
    "businessHours": "10:00 AM – 10:00 PM (Daily)",
    "contact": "-"
  },
  {
    "name": "Naim Street Mall",
    "features": "Urban commercial zone in Bintulu Paragon offering shops, restaurants, and office space.",
    "address": "Bintulu Paragon, Bintulu, Sarawak, Malaysia",
    "businessHours": "10:00 AM – 10:00 PM (Daily)",
    "contact": "-"
  },
  {
    "name": "SK One Garden City",
    "features": "Shopping center with diverse retail and service offerings for a full shopping experience.",
    "address": "Jalan Tun Ahmad Zaidi, Bintulu, Sarawak, Malaysia",
    "businessHours": "10:00 AM – 10:00 PM (Daily)",
    "contact": "-"
  }
]
