[
  {
    "name": "Li Hua Hotel Mukah",
    "features": "Li Hua Hotel Mukah is a 6-storey complex that houses 115 rooms and is integrated with the Medan Departmental Store, supermarket, food court, and other retail outlets, offering guests convenient access to shopping and dining.",
    "address": "Shoplot 22, Phase 2, Mukah Town Extension, Green Road, 96400 Mukah, Sarawak, Malaysia",
    "businessHours": "24 hours",
    "contact": "+60 84-874 888"
  },
  {
    "name": "Kingwood Resort Mukah",
    "features": "Kingwood Resort Mukah is a 3-star resort situated approximately 15 minutes from Mukah town, spanning 17 acres and facing the South China Sea. The resort offers 99 guest rooms and suites, each with a private balcony providing panoramic views of the sea and countryside. Facilities include an all-day halal restaurant serving local, Chinese, and Western cuisine, a grand ballroom accommodating up to 1,000 guests, three function rooms for 80 to 100 persons, an outdoor swimming pool, tennis courts, a sea view terrace for barbecues and parties, and 200 car parking bays. The resort is designed to provide a serene environment for relaxation as well as facilities for corporate and government meetings.",
    "address": "Lot 96, Block 17, Mukah Land District, 96400 Mukah, Sarawak, Malaysia",
    "businessHours": "24 hours",
    "contact": "+60 84-873 888 / +60 84-872 288"
  },
  {
    "name": "Kingwood Urban Hotel Mukah",
    "features": "Kingwood Urban Hotel Mukah offers a modern and sophisticated stay experience. The hotel provides Premier Single, Premier Twin, and Premier Suite rooms, each equipped with complimentary daily newspapers, tea and coffee making facilities, and Wi-Fi access for all mobile devices. The hotel is designed to cater to the needs of new-age travelers seeking a place to relax and rejuvenate.",
    "address": "Lot 1004, Block 68, Mukah Land District, Medan Setia Raja Commercial Centre, Boulevard Setia Raja, 96400 Mukah, Sarawak, Malaysia",
    "businessHours": "24 hours",
    "contact": "+60 84-874 811"
  },
  {
    "name": "Harmony Beach Resort",
    "features": "Harmony Beach Resort offers beachfront accommodations with easy access to the South China Sea. The resort provides comfortable rooms suitable for both leisure and business travelers.",
    "address": "KM4, Jalan Oya Mukah, 96400 Mukah, Sarawak, Malaysia",
    "businessHours": "24 hours",
    "contact": "+60 84-872 566 / +60 84-871 010"
  },
  {
    "name": "King Inn Hotel",
    "features": "King Inn Hotel provides affordable accommodations in the heart of Mukah town, offering easy access to local attractions and amenities.",
    "address": "No. 1 & 2, Jalan Boyan, 96400 Mukah, Sarawak, Malaysia",
    "businessHours": "24 hours",
    "contact": "+60 84-871 400 / +60 84-871 403"
  },
  {
    "name": "Qintai Inn",
    "features": "Qintai Inn offers budget-friendly accommodations with essential amenities, suitable for travelers seeking economical options.",
    "address": "No. 50, Tingkat 1, Jalan Oya, 96400 Mukah, Sarawak, Malaysia",
    "businessHours": "24 hours",
    "contact": "+60 84-872 873"
  },
  {
    "name": "Sri Umpang Hotel",
    "features": "Sri Umpang Hotel provides comfortable accommodations with convenient access to Mukah's town center and local attractions.",
    "address": "No. 29, Jalan Lintang, 96400 Mukah, Sarawak, Malaysia",
    "businessHours": "24 hours",
    "contact": "+60 84-871 888"
  },
  {
    "name": "Mandarin Inn",
    "features": "Mandarin Inn offers affordable lodging options in a central location, ideal for travelers exploring Mukah town.",
    "address": "No. 30-32, Tingkat 1 & 2, Bandar Lama Mukah, Jalan Lintang, 96400 Mukah, Sarawak, Malaysia",
    "businessHours": "24 hours",
    "contact": "+60 84-872 688"
  },
  {
    "name": "Kaul Beach Resort",
    "features": "Kaul Beach Resort provides beachfront accommodations with facilities suitable for leisure travelers seeking a seaside retreat.",
    "address": "KM4, Jalan Mukah Oya, 96400 Mukah, Sarawak, Malaysia",
    "businessHours": "24 hours",
    "contact": "+60 84-871 700"
  },
  {
    "name": "Weiming Hotel",
    "features": "Weiming Hotel offers budget accommodations in the heart of Mukah, providing easy access to local shops and eateries.",
    "address": "No. 19, Main Bazaar, 96400 Mukah, Sarawak, Malaysia",
    "businessHours": "24 hours",
    "contact": "+60 84-872 278"
  }
]
